X,Y,STOP_ID,STOP_CODE,STOP_NAME,STOP_DESC,STOP_LAT,STOP_LON,NAME_CUR,Routes_WKD,Routes_OFF,Routes_ALL,OBJECTID,Remote,Booth,stop_id_20,Station_20,Line_2013,Division_2
-73.898583,40.889248,101,0,242ND STREET-BWAY (Van Cortland Park),0,40.889248,-73.898583,242ND STREET - VAN CORTLAND PARK,1,1,1,1,R117,R197,101,242 ST,1,IRT
-73.900878,40.884653,103,0,238TH STREET-BWAY,0,40.884653,-73.900878,238TH STREET,1,1,1,2,R306,R196,103,238 ST,1,IRT
-73.904834,40.878856,104,0,231ST STREET-BWAY,0,40.878856,-73.904834,231ST STREET,1,1,1,3,R040,R194,104,231 ST,1,IRT
-73.909831,40.874561,106,0,225TH STREET-BWAY (Marble Hill),0,40.874561,-73.909831,225TH STREET - MARBLE HILL,1,1,1,4,R039,R192,106,MARBLE HILL-225,1,IRT
-73.915279,40.869444,107,0,215TH STREET-10 AV,0,40.869444,-73.915279,215TH STREET - 10 AV,1,1,1,5,R038,R190,107,215 ST,1,IRT
-73.918822,40.864621,108,0,207TH STREET-10 AV,0,40.864621,-73.918822,207TH STREET - 10 AV,1,1,1,6,R037,R188,108,207 ST,1,IRT
-73.925536,40.860531,109,0,DYCKMAN ST. - 200 STREET,0,40.860531,-73.925536,DYCKMAN ST - 200 STREET,1,1,1,7,R036,R186,109,DYCKMAN ST,1,IRT
-73.929412,40.855225,110,0,191 STREET - ST. NICHOLAS,0,40.855225,-73.929412,191 STREET - ST NICHOLAS,1,1,1,8,R274,R185,110,191 ST,1,IRT
-73.933596,40.849505,111,0,181 STREET - ST. NICHOLAS,0,40.849505,-73.933596,181 STREET - ST NICHOLAS,1,1,1,9,R260,R183,111,181 ST,1,IRT
-73.940133,40.840556,112,0,168TH STREET - BWAY- WASHINGTON HGTS,0,40.840556,-73.940133,168TH STREET- WASHINGTON HGTS,1,1,1,10,R035,N012,112,168 ST-BROADWAY,1AC,IND
-73.94489,40.834041,113,0,157TH STREET - BWAY,0,40.834041,-73.94489,157TH STREET,1,1,1,13,R193,R179,113,157 ST,1,IRT
-73.953676,40.822008,115,0,137TH STREET - BWAY (City College),0,40.822008,-73.953676,137TH STREET - CITY COLLEGE,1,1,1,15,R169,R175,115,137 ST-CITY COL,1,IRT
-73.958372,40.815581,116,0,125TH STREET - BWAY,0,40.815581,-73.958372,125TH STREET,1,1,1,17,R034,R174,116,125 ST,1,IRT
-73.96411,40.807722,117,0,116TH STREET - BWAY - Columbia Univ,0,40.807722,-73.96411,116TH STREET - COLUMBIA UNIV,1,1,1,19,R159,R173,117,116 ST-COLUMBIA,1,IRT
-73.966847,40.803967,118,0,110TH STREET - BWAY - Cathedral Pkwy,0,40.803967,-73.966847,110TH STREET - CATHEDRAL PKWY,1,1,1,20,R192,R171,118,110 ST-CATHEDRL,1,IRT
-73.968379,40.799446,119,0,103RD STREET - BWAY,0,40.799446,-73.968379,103RD STREET,1,1,1,22,R191,R170,119,103 ST,1,IRT
-73.972323,40.793919,120,0,96TH STREET - BWAY,0,40.793919,-73.972323,96TH STREET,"1, 2, 3","1, 2, 3","1, 2, 3",23,R168,R168,120,96 ST,123,IRT
-73.976218,40.788644,121,0,86TH STREET - BWAY,0,40.788644,-73.976218,86TH STREET,1,"1, 2","1, 2",25,R167,R164,121,86 ST,1,IRT
-73.979917,40.783934,122,0,79TH STREET - BWAY,0,40.783934,-73.979917,79TH STREET,1,"1, 2","1, 2",28,R166,R162,122,79 ST,1,IRT
-73.98197,40.778453,123,0,72ND STREET - BWAY,0,40.778453,-73.98197,72ND STREET,"1, 2, 3","1, 2, 3","1, 2, 3",30,R452,R161A,123,72 ST,123,IRT
-73.982209,40.77344,124,0,66TH STREET - BWAY (Lincoln Center),0,40.77344,-73.982209,66TH STREET - LINCOLN CENTER,1,"1, 2","1, 2",32,R164,R159,124,66 ST-LINCOLN,1,IRT
-73.981929,40.768247,125,0,59 ST. COLUMBUS CIRCLE,0,40.768247,-73.981929,59 ST COLUMBUS CIRCLE,1,"1, 2","1, 2",35,R084,N049,125,59 ST-COLUMBUS,1ABCD,IND
-73.983849,40.761728,126,0,50TH STREET-BWAY,0,40.761728,-73.983849,50TH STREET,1,"1, 2","1, 2",38,R116,R154,126,50 ST,1,IRT
-73.987495,40.75529,127,0,42ND ST. - TIMES SQ.,0,40.75529,-73.987495,42ND ST - TIMES SQ,"1, 2, 3","1, 2, 3","1, 2, 3",40,R032,A021,127,42 ST-TIMES SQ,1237ACENQRS,BMT
-73.991057,40.750373,128,0,34TH ST. - PENN STA.,0,40.750373,-73.991057,34TH ST - PENN STA,"1, 2, 3","1, 2, 3","1, 2, 3",49,R031,R135,128,34 ST-PENN STA,123,IRT
-73.993365,40.747215,129,0,28TH STREET - 7 AV,0,40.747215,-73.993365,28TH STREET,1,"1, 2","1, 2",55,R272,R133,129,28 ST,1,IRT
-73.995657,40.744081,130,0,23RD STREET - 7 AV,0,40.744081,-73.995657,23RD STREET,1,"1, 2","1, 2",57,R190,R131,130,23 ST,1,IRT
-73.997871,40.74104,131,0,18TH STREET - 7 AV,0,40.74104,-73.997871,18TH STREET,1,"1, 2","1, 2",59,R321,R129,131,18 ST,1,IRT
-74.000201,40.737826,132,0,14TH STREET - 7 AV,0,40.737826,-74.000201,14TH STREET,"1, 2, 3","1, 2, 3","1, 2, 3",61,R105,R127,132,14 ST,123FLM,IRT
-74.002906,40.733422,133,0,CHRISTOPHER - SHERIDAN S,0,40.733422,-74.002906,CHRISTOPHER - SHERIDAN S,1,"1, 2","1, 2",64,R189,R125,133,CHRISTOPHER ST,1,IRT
-74.005367,40.728251,134,0,HOUSTON STREET - IRT,0,40.728251,-74.005367,HOUSTON STREET,1,"1, 2","1, 2",67,R290,R121,134,HOUSTON ST,1,IRT
-74.006886,40.719318,136,0,FRANKLIN STREET - IRT,0,40.719318,-74.006886,FRANKLIN STREET,1,"1, 2","1, 2",71,R343,R117,136,FRANKLIN ST,1,IRT
-74.009266,40.715478,137,0,CHAMBERS STREET - IRT,0,40.715478,-74.009266,CHAMBERS STREET,"1, 2, 3","1, 2, 3","1, 2, 3",73,R030,R116,137,CHAMBERS ST,123,IRT
-74.011029,40.710688,138,0,CORLANDT STREET - IRT,0,40.710688,-74.011029,CORTLANDT STREET,R,"N, R","N, R",74,R305,R106,138,CORTLANDT ST,1,IRT
-74.013783,40.707513,139,0,RECTOR STREET,0,40.707513,-74.013783,RECTOR STREET,1,1,1,78,R304,R102,139,RECTOR ST,1,IRT
-74.013506,40.701542,142,0,SOUTH FERRY TERMINAL,0,40.701542,-74.013506,SOUTH FERRY TERMINAL,1,1,1,80,R001,R101S,142,SOUTH FERRY,R1,IRT
-73.85062,40.903125,201,0,EAST 241ST STREET - WAKEFIELD,0,40.903125,-73.85062,EAST 241ST STREET - WAKEFIELD,2,2,2,81,R145,R336,201,WAKEFIELD-241,2,IRT
-73.854376,40.898379,204,0,EAST 238TH STREET - NEREID,0,40.898379,-73.854376,EAST 238TH STREET - NEREID,"2, 5","2, 5","2, 5",82,R444,R335,204,NEREID AVE,25,IRT
-73.857469,40.893201,205,0,EAST 233RD STREET,0,40.893201,-73.857469,EAST 233RD STREET,"2, 5","2, 5","2, 5",83,R367,R334,205,233 ST,25,IRT
-73.860341,40.888022,206,0,EAST 225TH STREET,0,40.888022,-73.860341,EAST 225TH STREET,"2, 5","2, 5","2, 5",84,R366,R333,206,225 ST,25,IRT
-73.862633,40.883895,207,0,219TH STREET-WHITE PLAINS RD,0,40.883895,-73.862633,219TH STREET - WHITE PLAINS RD,"2, 5","2, 5","2, 5",85,R365,R332,207,219 ST,25,IRT
-73.866256,40.87785,208,0,GUN HILL ROAD,0,40.87785,-73.866256,GUN HILL ROAD,"2, 5","2, 5","2, 5",86,R364,R331,208,GUN HILL ROAD,25,IRT
-73.867164,40.871356,209,0,BURKE AVENUE,0,40.871356,-73.867164,BURKE AVENUE,"2, 5","2, 5","2, 5",87,R363,R330,209,BURKE AVE,25,IRT
-73.867352,40.865462,210,0,ALLERTON AVE.,0,40.865462,-73.867352,ALLERTON AVE,"2, 5","2, 5","2, 5",88,R362,R329,210,ALLERTON AVE,25,IRT
-73.867615,40.857192,211,0,PELHAM PKWY - BRONX ZOO,0,40.857192,-73.867615,PELHAM PKWY - BRONX ZOO,"2, 5",2,"2, 5",89,R361,R327,211,PELHAM PARKWAY,25,IRT
-73.868457,40.848828,212,0,BRONX PARK EAST,0,40.848828,-73.868457,BRONX PARK EAST,"2, 5",2,"2, 5",91,R389,R326,212,BRONX PARK EAST,25,IRT
-73.873488,40.841894,213,0,E 180TH STREET,0,40.841894,-73.873488,E 180TH STREET,"2, 5","2, 5","2, 5",92,R388,R325,213,E 180 ST,25,IRT
-73.880049,40.840295,214,0,EAST TREMONT AVE. - WEST FARMS SQ - 177 ST,0,40.840295,-73.880049,EAST TREMONT AVE - WEST FARMS SQ,"2, 5","2, 5","2, 5",93,R387,R323,214,E TREMONT AVE,25,IRT
-73.887734,40.837288,215,0,174TH STREET,0,40.837288,-73.887734,174TH STREET,"2, 5","2, 5","2, 5",95,R386,R321,215,174 ST,25,IRT
-73.891865,40.829993,216,0,FREEMAN STREET,0,40.829993,-73.891865,FREEMAN STREET,"2, 5","2, 5","2, 5",97,R409,R319,216,FREEMAN ST,25,IRT
-73.893064,40.824073,217,0,SIMPSON STREET,0,40.824073,-73.893064,SIMPSON STREET,"2, 5","2, 5","2, 5",99,R408,R317,217,SIMPSON ST,25,IRT
-73.896736,40.822181,218,0,INTERVALE AVENUE,0,40.822181,-73.896736,INTERVALE AVENUE,"2, 5","2, 5","2, 5",101,R407,R316,218,INTERVALE-163,25,IRT
-73.90177,40.819585,219,0,PROSPECT AVENUE,0,40.819585,-73.90177,PROSPECT AVENUE,"2, 5","2, 5","2, 5",102,R406,R314,219,PROSPECT AVE,25,IRT
-73.907807,40.81649,220,0,JACKSON AVE.,0,40.81649,-73.907807,JACKSON AVE,"2, 5","2, 5","2, 5",104,R405,R312,220,JACKSON AVE,25,IRT
-73.917757,40.816109,221,0,149TH ST. - 3RD AVE,0,40.816109,-73.917757,149TH ST - 3RD AVE,"2, 5","2, 5","2, 5",105,R053,R310,221,149 ST-3 AVE,25,IRT
-73.94077,40.814229,224,0,135 STREET - LENOX,0,40.814229,-73.94077,135 STREET,"2, 3","2, 3","2, 3",107,R207,R306,224,135 ST,23,IRT
-73.945502,40.807745,225,0,125 STREET - LENOX,0,40.807745,-73.945502,125 STREET,"2, 3","2, 3","2, 3",109,R206,R304,225,125 ST,23,IRT
-73.949625,40.802098,226,0,116 STREET - LENOX,0,40.802098,-73.949625,116 STREET,"2, 3","2, 3","2, 3",111,R324,R302,226,116 ST,23,IRT
-73.951822,40.799075,227,0,110 STREET - LENOX (CENTRAL PARK NORTH),0,40.799075,-73.951822,110 STREET - CENTRAL PARK NORTH,"2, 3","2, 3","2, 3",113,R323,R301,227,110 ST-CPN,23,IRT
-74.008811,40.713051,228,0,PARK PLACE,0,40.713051,-74.008811,PARK PLACE,"2, 3","2, 3","2, 3",114,R029,R115,228,PARK PLACE,23ACE,IRT
-74.006571,40.709416,229,0,FULTON STREET,0,40.709416,-74.006571,FULTON STREET,"2, 3","2, 3","2, 3",115,R014,R206,229,FULTON ST,2345ACJZ,IRT
-74.0091,40.706821,230,0,WALL - WILLIAM ST,0,40.706821,-74.0091,WALL - WILLIAM ST,"2, 3","2, 3","2, 3",120,R027,R110,230,WALL ST,23,IRT
-73.993086,40.697466,231,0,CLARK STREET,0,40.697466,-73.993086,CLARK STREET,"2, 3","2, 3","2, 3",124,R224,R600,231,CLARK ST,23,IRT
-73.989998,40.693219,232,0,BOROUGH HALL,0,40.693219,-73.989998,BOROUGH HALL,"2, 3","2, 3","2, 3",125,R108,C001,232,BOROUGH HALL/CT,2345R,BMT
-73.985065,40.690545,233,0,HOYT STREET - FULTON MALL,0,40.690545,-73.985065,HOYT STREET - FULTON MALL,"2, 3","2, 3","2, 3",129,R225,R606,233,HOYT ST,23,IRT
-73.980492,40.688246,234,0,NEVINS STREET,0,40.688246,-73.980492,NEVINS STREET,"2, 3, 4, 5","2, 3, 4, 5","2, 3, 4, 5",131,R056,R608,234,NEVINS ST,2345,IRT
-73.977666,40.684359,235,0,ATLANTIC AVENUE - PACIFIC ST,0,40.684359,-73.977666,ATLANTIC AVENUE - PACIFIC ST,"2, 3, 4, 5","2, 3, 4, 5","2, 3, 4, 5",133,R057,B001,235,ATLANTIC AVE,2345BDNQR,BMT
-73.975098,40.680829,236,0,BERGEN STREET,0,40.680829,-73.975098,BERGEN STREET,"2, 3","2, 3, 4","2, 3, 4",134,R129,N531,236,BERGEN ST,FG,IND
-73.971046,40.675235,237,0,GRAND ARMY PLAZA,0,40.675235,-73.971046,GRAND ARMY PLAZA,"2, 3","2, 3, 4","2, 3, 4",137,R059,R619,237,GRAND ARMY PLAZ,23,IRT
-73.964375,40.671987,238,0,EASTERN PARKWAY - BROOKLYN MUSEUM,0,40.671987,-73.964375,EASTERN PARKWAY - BROOKLYN MUSEUM,"2, 3","2, 3, 4","2, 3, 4",138,R060,R621,238,EASTERN PKWY,23,IRT
-73.958131,40.670682,239,0,FRANKLIN  AVE.,0,40.670682,-73.958131,FRANKLIN  AVE,"2, 3, 4, 5","2, 3, 4, 5","2, 3, 4, 5",139,R123,R622,239,FRANKLIN AVE,2345S,IRT
-73.950683,40.667883,241,0,PRESIDENT STREET,0,40.667883,-73.950683,PRESIDENT STREET,"2, 5","2, 5","2, 5",140,R277,R635,241,PRESIDENT ST,25,IRT
-73.95085,40.662742,242,0,STERLING STREET,0,40.662742,-73.95085,STERLING STREET,"2, 5","2, 5","2, 5",141,R209,R636,242,STERLING ST,25,IRT
-73.9502,40.656652,243,0,WINTHROP STREET,0,40.656652,-73.9502,WINTHROP STREET,"2, 5","2, 5","2, 5",142,R451,R637,243,WINTHROP ST,25,IRT
-73.949575,40.650843,244,0,CHURCH  AVE.,0,40.650843,-73.949575,CHURCH  AVE,"2, 5","2, 5","2, 5",143,R109,R639,244,CHURCH AVE,25,IRT
-73.948959,40.645098,245,0,BEVERLY ROAD,0,40.645098,-73.948959,BEVERLY ROAD,"2, 5","2, 5","2, 5",144,R210,R641,245,BEVERLY ROAD,25,IRT
-73.948411,40.639967,246,0,NEWKIRK AVE.,0,40.639967,-73.948411,NEWKIRK AVE,"2, 5","2, 5","2, 5",145,R135,R643,246,NEWKIRK AVE,25,IRT
-73.947642,40.632836,247,0,FLATBUSH AVENUE - BROOKLYN COLLEGE,0,40.632836,-73.947642,FLATBUSH AVENUE - BROOKLYN COLLEGE,"2, 5","2, 5","2, 5",147,R110,R645,247,FLATBUSH AVE,25,IRT
-73.950466,40.669847,248,0,NOSTRAND AVE.,0,40.669847,-73.950466,NOSTRAND AVE,3,"2, 3, 4, 5","2, 3, 4, 5",150,R061,R623,248,NOSTRAND AVE,3,IRT
-73.942161,40.669399,249,0,KINGSTON AVE.,0,40.669399,-73.942161,KINGSTON AVE,3,"2, 3, 4, 5","2, 3, 4, 5",151,R124,R624,249,KINGSTON AVE,3,IRT
-73.932942,40.668897,250,0,UTICA AVENUE - CROWN HEIGHTS,0,40.668897,-73.932942,UTICA AVENUE - CROWN HEIGHTS,"3, 4","2, 3, 4, 5","2, 3, 4, 5",152,R062,R625,250,CROWN HTS-UTICA,34,IRT
-73.92261,40.664717,251,0,SUTTER AVE. - RUTLAND RD,0,40.664717,-73.92261,SUTTER AVE - RUTLAND RD,3,"2, 3, 4, 5","2, 3, 4, 5",154,R063,R627,251,SUTTER AVE,3,IRT
-73.916327,40.661453,252,0,SARATOGA AVE.,0,40.661453,-73.916327,SARATOGA AVE,3,"2, 3, 4, 5","2, 3, 4, 5",155,R064,R628,252,SARATOGA AVE,3,IRT
-73.908946,40.662549,253,0,ROCKAWAY AVE.,0,40.662549,-73.908946,ROCKAWAY AVE,3,"2, 3, 4, 5","2, 3, 4, 5",156,R065,R629,253,ROCKAWAY AVE,3,IRT
-73.902447,40.663515,254,0,JUNIUS STREET,0,40.663515,-73.902447,JUNIUS STREET,3,"2, 3, 4, 5","2, 3, 4, 5",157,R066,R630,254,JUNIUS ST,3,IRT
-73.894895,40.664635,255,0,PENNSYLVANIA AVE.,0,40.664635,-73.894895,PENNSYLVANIA AVE,3,"2, 3, 4, 5","2, 3, 4, 5",158,R067,R632,255,PENNSYLVANIA AV,3,IRT
-73.889395,40.665449,256,0,VAN SICLEN AVE.,0,40.665449,-73.889395,VAN SICLEN AVE,3,"2, 3, 4, 5","2, 3, 4, 5",159,R068,R633,256,VAN SICLEN AVE,3,IRT
-73.884079,40.666235,257,0,NEW LOTS STATION,0,40.666235,-73.884079,NEW LOTS STATION,3,"2, 3, 4, 5","2, 3, 4, 5",160,R069,R634,257,NEW LOTS AVE,3,IRT
-73.93647,40.82388,301,0,148TH ST - LENOX AVE - HARLEM,0,40.82388,-73.93647,148TH ST AVE - HARLEM,3,3,3,161,R345,R309,301,148 ST-LENOX,3,IRT
-73.936245,40.820421,302,0,145TH STREET-LENOX,0,40.820421,-73.936245,145TH STREET,3,3,3,162,R344,R308,302,145 ST,3,IRT
-73.878751,40.886037,401,0,WOODLAWN-JEROME AVENUE,0,40.886037,-73.878751,WOODLAWN - JEROME AVENUE,4,4,4,163,R052,R294,401,WOODLAWN ROAD,4,IRT
-73.884655,40.87975,402,0,MOSHOLU PARKWAY,0,40.87975,-73.884655,MOSHOLU PARKWAY,4,4,4,164,R133,R293,402,MOSHOLU PARKWAY,4,IRT
-73.890064,40.873412,405,0,BEDFORD PARK BLVD - LEHMAN COLLEGE,0,40.873412,-73.890064,BEDFORD PARK BLVD - LEHMAN COLLEGE,4,4,4,165,R183,R291,405,BEDFORD PARK BL,4,IRT
-73.897174,40.86776,406,0,KINGSBRIDGE ROAD,0,40.86776,-73.897174,KINGSBRIDGE ROAD,4,4,4,166,R161,R290,406,KINGSBRIDGE RD,4,IRT
-73.901034,40.862803,407,0,FORDHAM ROAD,0,40.862803,-73.901034,FORDHAM ROAD,4,4,4,167,R119,R289,407,FORDHAM ROAD,4,IRT
-73.903879,40.858407,408,0,183RD STREET,0,40.858407,-73.903879,183RD STREET,4,4,4,168,R275,R288,408,183 ST,4,IRT
-73.907684,40.853453,409,0,BURNSIDE AVENUE,0,40.853453,-73.907684,BURNSIDE AVENUE,4,4,4,169,R244,R287,409,BURNSIDE AVE,4,IRT
-73.911794,40.84848,410,0,176TH STREET,0,40.84848,-73.911794,176TH STREET,4,4,4,170,R309,R286,410,176 ST,4,IRT
-73.914685,40.844434,411,0,MT. EDEN AVE.,0,40.844434,-73.914685,MT EDEN AVE,4,4,4,171,R308,R285,411,MT EDEN AVE,4,IRT
-73.917791,40.840075,412,0,170TH STREET,0,40.840075,-73.917791,170TH STREET,4,4,4,172,R243,R284,412,170 ST,4,IRT
-73.9214,40.835537,413,0,167TH STREET,0,40.835537,-73.9214,167TH STREET,4,4,4,173,R221,R283,413,167 ST,4,IRT
-73.925831,40.827994,414,0,161ST ST. (YANKEE STADIUM),0,40.827994,-73.925831,161ST ST - YANKEE STADIUM,4,4,4,174,R195,N203,414,161 ST-YANKEE,BD4,IND
-73.927351,40.818375,415,0,149TH ST. - GRAND CONCOURSE - UPPER LEVEL,0,40.818375,-73.927351,149TH ST - GRAND CONCOURSE - UPPER LEVEL,4,4,4,180,R205,R260,415,149 ST-GR CONC,245,IRT
-73.929849,40.813224,416,0,138TH ST. - GRAND CONCOURSE,0,40.813224,-73.929849,138TH ST - GRAND CONCOURSE,"4, 5","4, 5","4, 5",182,R307,R259,416,138 ST-GR CONC,45,IRT
-74.011862,40.707557,419,0,WALL STREET,0,40.707557,-74.011862,WALL STREET,"4, 5","4, 5","4, 5",183,R043,R203,419,WALL ST,45,IRT
-74.014065,40.704817,420,0,BOWLING GREEN,0,40.704817,-74.014065,BOWLING GREEN,"4, 5","4, 5","4, 5",187,R041,R200A,420,BOWLING GREEN,45,IRT
-73.830834,40.8883,501,0,DYRE AVENUE - EASTCHESTER,0,40.8883,-73.830834,DYRE AVENUE - EASTCHESTER,5,5,5,190,R431,R730,501,DYRE AVE,5,IRT
-73.838591,40.878663,502,0,BAYCHESTER AVENUE,0,40.878663,-73.838591,BAYCHESTER AVENUE,5,5,5,191,R292,R729,502,BAYCHESTER AVE,5,IRT
-73.846384,40.869526,503,0,GUN HILL ROAD,0,40.869526,-73.846384,GUN HILL ROAD,5,5,5,192,R226,R728,503,GUN HILL ROAD,5,IRT
-73.855359,40.858985,504,0,PELHAM PARKWAY,0,40.858985,-73.855359,PELHAM PARKWAY,5,5,5,193,R430,R727,504,PELHAM PARKWAY,5,IRT
-73.860495,40.854364,505,0,MORRIS PARK,0,40.854364,-73.860495,MORRIS PARK,5,5,5,194,R329,R726,505,MORRIS PARK,5,IRT
-73.828121,40.852462,601,0,PELHAM BAY PARK,0,40.852462,-73.828121,PELHAM BAY PARK,"6, 6X","6, 6X","6, 6X",195,R429,R423,601,PELHAM BAY PARK,6,IRT
-73.832569,40.84681,602,0,BUHRE AVENUE,0,40.84681,-73.832569,BUHRE AVENUE,"6, 6X","6, 6X","6, 6X",196,R428,R422,602,BUHRE AVE,6,IRT
-73.836322,40.843863,603,0,MIDDLETOWN ROAD,0,40.843863,-73.836322,MIDDLETOWN ROAD,"6, 6X","6, 6X","6, 6X",197,R427,R421,603,MIDDLETOWN ROAD,6,IRT
-73.842952,40.839892,604,0,WESTCHESTER SQ - EAST TREMONT,0,40.839892,-73.842952,WESTCHESTER SQ - EAST TREMONT,"6, 6X","6, 6X","6, 6X",198,R107,R420,604,WESTCHESTER SQ,6,IRT
-73.847036,40.836488,606,0,ZEREGA AVENUE,0,40.836488,-73.847036,ZEREGA AVENUE,"6, 6X","6, 6X","6, 6X",199,R326,R419,606,ZEREGA AVE,6,IRT
-73.851222,40.834255,607,0,CASTLE HILL AVENUE,0,40.834255,-73.851222,CASTLE HILL AVENUE,"6, 6X","6, 6X","6, 6X",200,R106,R418,607,CASTLE HILL AVE,6,IRT
-73.860816,40.833226,608,0,177TH ST. PARKCHESTER,0,40.833226,-73.860816,177TH ST PARKCHESTER,"6, 6X","6, 6X","6, 6X",201,R222,R417,608,E 177 ST-PARKCH,6,IRT
-73.867618,40.831509,609,0,ST. LAWRENCE AVENUE,0,40.831509,-73.867618,ST LAWRENCE AVENUE,6,6,6,202,R245,R416,609,ST LAWRENCE AVE,6,IRT
-73.874516,40.829521,610,0,SOUNDVIEW AVENUE (MORRISON),0,40.829521,-73.874516,SOUNDVIEW AVENUE - MORRISON,6,6,6,203,R120,R415,610,MORRISON AVE,6,IRT
-73.879159,40.828584,611,0,ELDER AVENUE,0,40.828584,-73.879159,ELDER AVENUE,6,6,6,204,R162,R414,611,ELDER AVE,6,IRT
-73.886283,40.826525,612,0,WHITLOCK AVENUE,0,40.826525,-73.886283,WHITLOCK AVENUE,6,6,6,205,R325,R413,612,WHITLOCK AVE,6,IRT
-73.890549,40.820948,613,0,HUNTS POINT AVE,0,40.820948,-73.890549,HUNTS POINT AVE,"6, 6X","6, 6X","6, 6X",206,R146,R412,613,HUNTS POINT AVE,6,IRT
-73.896435,40.816104,614,0,LONGWOOD AVENUE,0,40.816104,-73.896435,LONGWOOD AVENUE,6,6,6,207,R450,R410,614,LONGWOOD AVE,6,IRT
-73.904098,40.812118,615,0,EAST 149TH STREET,0,40.812118,-73.904098,EAST 149TH STREET,6,6,6,209,R449,R408,615,E 149 ST,6,IRT
-73.907657,40.808719,616,0,E 143RD ST - ST. MARY'S ST,0,40.808719,-73.907657,E 143RD ST - ST MARY'S ST,6,6,6,211,R448,R406,616,E 143 ST,6,IRT
-73.914042,40.805368,617,0,CYPRESS AVENUE,0,40.805368,-73.914042,CYPRESS AVENUE,6,6,6,213,R447,R404,617,CYPRESS AVE,6,IRT
-73.91924,40.807566,618,0,BROOK AVENUE,0,40.807566,-73.91924,BROOK AVENUE,6,6,6,215,R446,R402,618,BROOK AVE,6,IRT
-73.926138,40.810476,619,0,138TH ST. THIRD AVENUE,0,40.810476,-73.926138,138TH ST THIRD AVENUE,"6, 6X",6,"6, 6X",217,R445,R401,619,138 ST-3 AVE,6,IRT
-73.941617,40.798629,622,0,116TH STREET - LEXINGTON,0,40.798629,-73.941617,116TH STREET,"6, 6X","4, 6","4, 6, 6X",218,R182,R256,622,116 ST,6,IRT
-73.94425,40.79502,623,0,110TH STREET - LEXINGTON,0,40.79502,-73.94425,110TH STREET,"6, 6X","4, 6","4, 6, 6X",220,R181,R253,623,110 ST,6,IRT
-73.947478,40.7906,624,0,103RD STREET - LEXINGTON,0,40.7906,-73.947478,103RD STREET,"6, 6X","4, 6","4, 6, 6X",222,R180,R252,624,103 ST,6,IRT
-73.95107,40.785672,625,0,96TH STREET - LEXINGTON,0,40.785672,-73.95107,96TH STREET,"6, 6X","4, 6","4, 6, 6X",223,R144,R251,625,96 ST,6,IRT
-73.955589,40.779492,626,0,86TH STREET - LEXINGTON,0,40.779492,-73.955589,86TH STREET,"4, 5, 6, 6X","4, 5, 6","4, 5, 6, 6X",224,R179,R249,626,86 ST,456,IRT
-73.959874,40.77362,627,0,77TH STREET - LEXINGTON,0,40.77362,-73.959874,77TH STREET,"6, 6X","4, 6","4, 6, 6X",226,R178,R247,627,77 ST,6,IRT
-73.96387,40.768141,628,0,68TH STREET - HUNTER COLLEGE,0,40.768141,-73.96387,68TH STREET - HUNTER COLLEGE,"6, 6X","4, 6","4, 6, 6X",228,R177,R246,628,68ST-HUNTER COL,6,IRT
-73.967967,40.762526,629,0,59TH STREET - LEXINGTON,0,40.762526,-73.967967,59TH STREET,"4, 5, 6, 6X","4, 5, 6","4, 5, 6, 6X",229,R050,R244,629,59 ST,456NQR,IRT
-73.97192,40.757107,630,0,51TH STREET - LEXINGTON,0,40.757107,-73.97192,51TH STREET,"6, 6X","4, 6","4, 6, 6X",233,R049,R242,630,51 ST,6,IRT
-73.976848,40.751776,631,0,GRAND CENTRAL - LEXINGTON - 42 ST,0,40.751776,-73.976848,GRAND CENTRAL - 42 ST,"4, 5, 6, 6X","4, 5, 6","4, 5, 6, 6X",236,R045,R233,631,42 ST-GRD CNTRL,4567S,IRT
-73.982076,40.746081,632,0,33RD STREET - LEXINGTON,0,40.746081,-73.982076,33RD STREET,"6, 6X","4, 6","4, 6, 6X",244,R176,R231,632,33 ST,6,IRT
-73.984264,40.74307,633,0,28TH STREET - LEXINGTON,0,40.74307,-73.984264,28TH STREET,"6, 6X","4, 6","4, 6, 6X",248,R143,R228,633,28 ST,6,IRT
-73.986599,40.739864,634,0,23RD STREET - LEXINGTON,0,40.739864,-73.986599,23RD STREET,"6, 6X","4, 6","4, 6, 6X",251,R131,R226,634,23 ST,6,IRT
-73.989951,40.734673,635,0,14TH STREET - LEXINGTON - UNION SQ,0,40.734673,-73.989951,14TH STREET - UNION SQ,"4, 5, 6, 6X","4, 5, 6","4, 5, 6, 6X",255,R170,A033,635,14 ST-UNION SQ,456LNQR,BMT
-73.99107,40.730054,636,0,ASTOR PL-8TH ST-LEXINGTON,0,40.730054,-73.99107,ASTOR PL - 8TH ST,"6, 6X","4, 6","4, 6, 6X",261,R160,R219,636,ASTOR PLACE,6,IRT
-73.994659,40.725915,637,0,BLEECKER STREET-LEXINGTON,0,40.725915,-73.994659,BLEECKER STREET,"6, 6X","4, 6","4, 6, 6X",263,R194,R217A,637,BLEECKER ST,6DF,IRT
-73.997141,40.722301,638,0,SPRING STREET-LEXINGTON,0,40.722301,-73.997141,SPRING STREET,"6, 6X","4, 6","4, 6, 6X",265,R322,R215,638,SPRING ST,6,IRT
-74.000193,40.718803,639,0,CANAL STREET,0,40.718803,-74.000193,CANAL STREET,"6, 6X","4, 6","4, 6, 6X",267,R320,R119,639,CANAL ST,1,IRT
-74.004131,40.713065,640,0,BROOKLYN BRIDGE-CITY HALL,0,40.713065,-74.004131,BROOKLYN BRIDGE - CITY HALL,"4, 5, 6, 6X","4, 5, 6","4, 5, 6, 6X",269,R044,R210,640,BROOKLYN BRIDGE,456JZ,IRT
-73.83003,40.7596,701,0,MAIN STREET - FLUSHING,0,40.7596,-73.83003,MAIN STREET - FLUSHING,"7, 7X","7, 7X","7, 7X",271,R055,R533,701,MAIN ST,7,IRT
-73.84564,40.754618,702,0,WILLETS POINT (SHEA STADIUM),0,40.754618,-73.84564,WILLETS POINT - SHEA STADIUM,"7, 7X","7, 7X","7, 7X",273,R328,R532,702,METS-WILLETS PT,7,IRT
-73.855335,40.75173,705,0,111TH STREET - STATION,0,40.75173,-73.855335,111TH STREET - STATION,7,7,7,276,R310,R530,705,111 ST,7,IRT
-73.8627,40.749865,706,0,103RD STREET - CORAON PLAZA,0,40.749865,-73.8627,103RD STREET - CORONA PLAZA,7,7,7,277,R208,R529,706,103 ST-CORONA,7,IRT
-73.869527,40.749145,707,0,JUNCTION BOULEVARD,0,40.749145,-73.869527,JUNCTION BOULEVARD,"7, 7X","7, 7X","7, 7X",278,R097,R528,707,JUNCTION BLVD,7,IRT
-73.876613,40.748408,708,0,90TH STREET - ELMHURST,0,40.748408,-73.876613,90TH STREET - ELMHURST,7,7,7,279,R122,R527,708,90 ST-ELMHURST,7,IRT
-73.883697,40.747659,709,0,82 STREET - JACKSON HEIGHTS,0,40.747659,-73.883697,82 STREET - JACKSON HEIGHTS,7,7,7,280,R096,R526,709,82 ST-JACKSON H,7,IRT
-73.891394,40.746848,710,0,74TH STREET - BROADWAY,0,40.746848,-73.891394,74TH STREET - BROADWAY,7,7,7,281,R018,R525,710,74 ST-BROADWAY,EFMR7,IRT
-73.896403,40.746325,711,0,69TH STREET - FISK AVE,0,40.746325,-73.896403,69TH STREET - FISK AVE,7,7,7,282,R347,R524,711,69 ST-FISK AVE,7,IRT
-73.902984,40.74563,712,0,61ST STREET - WOODSIDE,0,40.74563,-73.902984,61ST STREET - WOODSIDE,"7, 7X","7, 7X","7, 7X",283,R147,R523,712,61 ST/WOODSIDE,7,IRT
-73.912549,40.744149,713,0,52ND STREET - LINCOLN Av,0,40.744149,-73.912549,52ND STREET - LINCOLN AV,7,7,7,284,R327,R521,713,52 ST-LINCOLN,7,IRT
-73.918435,40.743132,714,0,46TH STREET - BLISS STR,0,40.743132,-73.918435,46TH STREET - BLISS STR,7,7,7,285,R223,R519,714,46 ST-BLISS ST,7,IRT
-73.924016,40.743781,715,0,40TH STREET - LOWERY ST,0,40.743781,-73.924016,40TH STREET - LOWERY ST,7,7,7,287,R261,R518,715,40 ST-LOWERY ST,7,IRT
-73.930997,40.744587,716,0,33RD STREET - RAWSON ST,0,40.744587,-73.930997,33RD STREET - RAWSON ST,7,7,7,288,R291,R516,716,33 ST/RAWSON ST,7,IRT
-73.945264,40.747023,719,0,45TH ROAD - COURTHOUSE SQ,0,40.747023,-73.945264,45TH ROAD - COURTHOUSE SQ,"7, 7X","7, 7X","7, 7X",290,R346,R508,719,COURT SQ,7,IRT
-73.948916,40.742216,720,0,HUNTERS POINT,0,40.742216,-73.948916,HUNTERS POINT,"7, 7X","7, 7X","7, 7X",291,R134,R507,720,HUNTERS PT AVE,7,IRT
-73.953581,40.742626,721,0,VERNON - JACKSON AVENUE,0,40.742626,-73.953581,VERNON - JACKSON AVENUE,"7, 7X","7, 7X","7, 7X",292,R276,R503,721,VERNON/JACKSON,7,IRT
-73.981963,40.753821,724,0,5TH AVENUE,0,40.753821,-73.981963,5TH AVENUE,"7, 7X","7, 7X","7, 7X",295,R054,R501,724,5 AVE-BRYANT PK,7BDFM,IRT
-73.979189,40.752769,901,0,GRAND CENTRAL SHUTTLE - 42 ST,0,40.752769,-73.979189,GRAND CENTRAL SHUTTLE - 42 ST,GS,GS,GS,297,R411,B009,901,PARK PLACE,S,BMT
-73.919899,40.868072,A02,0,207TH STREET - INWOOD,0,40.868072,-73.919899,207TH STREET - INWOOD,A,A,A,298,R173,N001,A02,INWOOD-207 ST,A,IND
-73.927271,40.865491,A03,0,DYCKMAN STREET (200 ST),0,40.865491,-73.927271,DYCKMAN STREET - 200 ST,A,A,A,300,R185,N003,A03,DYCKMAN-200 ST,A,IND
-73.93418,40.859022,A05,0,190TH STREET - IND,0,40.859022,-73.93418,190TH STREET,A,A,A,301,R280,N006A,A05,190 ST,A,IND
-73.937969,40.851695,A06,0,181ST STREET - IND,0,40.851695,-73.937969,181ST STREET,A,A,A,302,R174,N007A,A06,181 ST,A,IND
-73.939704,40.847391,A07,0,175TH STREET - IND,0,40.847391,-73.939704,175TH STREET,A,A,A,304,R126,N010,A07,175 ST,A,IND
-73.939892,40.836013,A10,0,163RD STREET - AMSTERDAM AV,0,40.836013,-73.939892,163RD STREET - AMSTERDAM AV,C,"A, C","A, C",306,R296,N016A,A10,163 ST-AMSTERDM,C,IND
-73.941514,40.830518,A11,0,155TH STREET - IND - ST NICHOLAS AV,0,40.830518,-73.941514,155TH STREET - ST NICHOLAS AV,C,"A, C","A, C",307,R331,N017,A11,155 ST,C,IND
-73.944216,40.824783,A12,0,145TH STREET - IND,0,40.824783,-73.944216,145TH STREET,"A, C","A, C","A, C",308,R101,N019,A12,145 ST,ABCD,IND
-73.947649,40.817894,A14,0,135TH STREET - IND,0,40.817894,-73.947649,135TH STREET,"B, C","A, B, C","A, B, C",310,R332,N022,A14,135 ST,BC,IND
-73.952343,40.811109,A15,0,125TH STREET - IND,0,40.811109,-73.952343,125TH STREET,"A, B, C, D","A, B, C, D","A, B, C, D",313,R102,N025,A15,125 ST,ACBD,IND
-73.954882,40.805085,A16,0,116TH STREET - IND,0,40.805085,-73.954882,116TH STREET,"B, C","A, B, C","A, B, C",315,R333,N029,A16,116 ST,BC,IND
-73.958159,40.800605,A17,0,110TH STREET - CATHEDRAL PKWY,0,40.800605,-73.958159,110TH STREET - CATHEDRAL PKWY,"B, C","A, B, C","A, B, C",317,R334,N034,A17,CATHEDRL-110 ST,BC,IND
-73.961454,40.796092,A18,0,103RD STREET - IND,0,40.796092,-73.961454,103RD STREET,"B, C","A, B, C","A, B, C",319,R314,N037,A18,103 ST,BC,IND
-73.964694,40.791644,A19,0,96TH STREET -,0,40.791644,-73.964694,96TH STREET,"B, C","A, B, C","A, B, C",320,R251,N039,A19,96 ST,BC,IND
-73.968916,40.785868,A20,0,86TH STREET -,0,40.785868,-73.968916,86TH STREET,"B, C","A, B, C","A, B, C",322,R186,N042,A20,86 ST,BC,IND
-73.972143,40.781433,A21,0,81ST STREET - MUSEUM OF NATURAL HISTORY,0,40.781433,-73.972143,81ST STREET - MUSEUM OF NATURAL HISTORY,"B, C","A, B, C","A, B, C",324,R187,N044,A21,81 ST-MUSEUM,BC,IND
-73.97641,40.775594,A22,0,72ND STREET -,0,40.775594,-73.97641,72ND STREET,"B, C","A, B, C","A, B, C",326,R281,N046,A22,72 ST,BC,IND
-73.985984,40.762456,A25,0,50TH STREET,0,40.762456,-73.985984,50TH STREET,"C, E","A, C, E","A, C, E",327,R188,N056,A25,50 ST,CE,IND
-73.989735,40.757308,A27,0,42ND ST - PORT AUTHORITY,0,40.757308,-73.989735,42ND ST - PORT AUTHORITY,"A, C, E","A, C, E","A, C, E",329,R010,N060,A27,42 ST-PA BUS TE,ACENQRS1237,IND
-73.993391,40.752287,A28,0,34TH ST - PENN STATION,0,40.752287,-73.993391,34TH ST - PENN STATION,"A, C, E","A, C, E","A, C, E",334,R012,N065,A28,34 ST-PENN STA,ACE,IND
-73.998041,40.745906,A30,0,23RD STREET,0,40.745906,-73.998041,23RD STREET,"C, E","A, C, E","A, C, E",342,R111,N075,A30,23 ST,CE,IND
-74.00169,40.740893,A31,0,14TH STREET - 8 AV,0,40.740893,-74.00169,14TH STREET - 8 AV,"A, C, E","A, C, E","A, C, E",345,R175,N078,A31,14 ST,ACEL,IND
-74.003739,40.726227,A33,0,SPRING STREET,0,40.726227,-74.003739,SPRING STREET,"C, E","A, C, E","A, C, E",346,R282,N086,A33,SPRING ST,CE,IND
-74.005229,40.720824,A34,0,CANAL STREET - IND,0,40.720824,-74.005229,CANAL STREET,"A, C, E","A, C, E","A, C, E",348,R139,N089,A34,CANAL ST,ACE,IND
-74.008585,40.714111,A36,0,CHAMBERS STREET,0,40.714111,-74.008585,CHAMBERS STREET,"A, C","A, C","A, C",350,R029,N091,A36,CHAMBERS ST,ACE23,IND
-74.007691,40.710197,A38,0,BROADWAY - NASSAU,0,40.710197,-74.007691,BROADWAY - NASSAU,"A, C","A, C","A, C",352,R028,R113,A38,FULTON ST,2345ACJZ,IRT
-73.990531,40.699337,A40,0,HIGH STREET - BROOKLYN BRIDGE,0,40.699337,-73.990531,HIGH STREET - BROOKLYN BRIDGE,"A, C","A, C","A, C",355,R252,N100,A40,HIGH ST,AC,IND
-73.987342,40.692338,A41,0,JAY STREET - BORO HALL,0,40.692338,-73.987342,JAY STREET - BORO HALL,"A, C, F","A, C, F","A, C, F",357,R127,N102,A41,JAY ST-METROTEC,ACF,IND
-73.985001,40.688484,A42,0,HOYT STREET - SCHERMERHORN ST,0,40.688484,-73.985001,HOYT STREET - SCHERMERHORN ST,"A, C, G","A, C, G","A, C, G",359,R217,N108,A42,HOYT/SCHERMER,ACG,IND
-73.973946,40.686113,A43,0,LAFAYETTE AVENUE,0,40.686113,-73.973946,LAFAYETTE AVENUE,C,"A, C","A, C",360,R283,N110,A43,LAFAYETTE AVE,C,IND
-73.965838,40.683263,A44,0,CLINTON - WASHINGTON,0,40.683263,-73.965838,CLINTON - WASHINGTON,C,"A, C","A, C",361,R284,N111,A44,CLINTON-WASH AV,C,IND
-73.956848,40.68138,A45,0,FRANKLIN AVENUE,0,40.68138,-73.956848,FRANKLIN AVENUE,C,"A, C","A, C",363,R297,N113,A45,FRANKLIN AVE,ACS,IND
-73.950426,40.680438,A46,0,NOSTRAND AVENUE,0,40.680438,-73.950426,NOSTRAND AVENUE,"A, C","A, C","A, C",365,R198,N116,A46,NOSTRAND AVE,AC,IND
-73.940859,40.679921,A47,0,KINGSTON - THROOP AVE,0,40.679921,-73.940859,KINGSTON - THROOP AVE,C,"A, C","A, C",367,R199,N118,A47,KINGSTON-THROOP,C,IND
-73.930729,40.679364,A48,0,UTICA AVENUE,0,40.679364,-73.930729,UTICA AVENUE,"A, C","A, C","A, C",369,R153,N120,A48,UTICA AVE,AC,IND
-73.920786,40.678822,A49,0,RALPH AVENUE,0,40.678822,-73.920786,RALPH AVENUE,C,"A, C","A, C",371,R438,N121B,A49,RALPH AVE,C,IND
-73.911946,40.67834,A50,0,ROCKAWAY AVENUE,0,40.67834,-73.911946,ROCKAWAY AVENUE,C,"A, C","A, C",372,R439,N122,A50,ROCKAWAY AVE,C,IND
-73.905316,40.678334,A51,0,BROADWAY - E. NEW YORK,0,40.678334,-73.905316,BROADWAY - E NEW YORK,"A, C","A, C","A, C",374,R103,N124,A51,BROADWAY-ENY,ACJLZ,IND
-73.896548,40.674542,A52,0,LIBERTY AVENUE,0,40.674542,-73.896548,LIBERTY AVENUE,C,"A, C","A, C",375,R440,N125,A52,LIBERTY AVE,C,IND
-73.890358,40.67271,A53,0,VAN SICLEN AVENUE,0,40.67271,-73.890358,VAN SICLEN AVENUE,C,"A, C","A, C",376,R441,N126,A53,VAN SICLEN AVE,C,IND
-73.88075,40.67413,A54,0,SHEPHERD AVENUE,0,40.67413,-73.88075,SHEPHERD AVENUE,C,"A, C","A, C",377,R442,N127,A54,SHEPHERD AVE,C,IND
-73.872106,40.675377,A55,0,EUCLID AVENUE,0,40.675377,-73.872106,EUCLID AVENUE,"A, C","A, C","A, C",378,R200,N128,A55,EUCLID AVE,AC,IND
-73.86505,40.677044,A57,0,GRANT AVENUE,0,40.677044,-73.86505,GRANT AVENUE,A,A,A,379,R382,N129,A57,GRANT AVE,A,IND
-73.858992,40.679371,A59,0,80TH STREET (HUDSON),0,40.679371,-73.858992,80TH STREET - HUDSON,A,A,A,380,R383,N130,A59,HUDSON-80 ST,A,IND
-73.85147,40.679843,A60,0,88TH STREET - BOYD AVE,0,40.679843,-73.85147,88TH STREET - BOYD AVE,A,A,A,382,R384,N133,A60,BOYD-88 ST,A,IND
-73.843853,40.680429,A61,0,ROCKAWAY BOULEVARD,0,40.680429,-73.843853,ROCKAWAY BOULEVARD,A,A,A,383,R385,N134,A61,ROCKAWAY BLVD,A,IND
-73.837683,40.681711,A63,0,104TH STREET - OXFORD AVE,0,40.681711,-73.837683,104TH STREET - OXFORD AVE,A,A,A,385,R354,N137,A63,OXFORD-104 ST,A,IND
-73.832163,40.684331,A64,0,111TH STREET - GREENWOOD AVE,0,40.684331,-73.832163,111TH STREET - GREENWOOD AVE,A,A,A,386,R355,N138,A64,GREENWOOD-111,A,IND
-73.825798,40.685951,A65,0,LEFFERTS BOULEVARD - OZONE PARK,0,40.685951,-73.825798,LEFFERTS BOULEVARD - OZONE PARK,A,A,A,388,R356,N141,A65,LEFFERTS BLVD,A,IND
-73.942836,40.754203,B04,0,21ST - L. I.CITY - QUEENSBRIDGE,0,40.754203,-73.942836,21ST - LI. CITY - QUEENSBRIDGE,F,F,F,389,R303,N603,B04,21 ST,F,IND
-73.95326,40.759145,B06,0,ROOSEVELT ISLAND,0,40.759145,-73.95326,ROOSEVELT ISLAND,F,F,F,390,R259,N602,B06,ROOSEVELT IS,F,IND
-73.966115,40.76463,B08,0,LEXINGTON - 63 ST,0,40.76463,-73.966115,LEXINGTON - 63 ST,F,F,F,391,R319,N601,B08,LEXINGTON AVE,F,IND
-73.977451,40.763971,B10,0,57TH STREET,0,40.763971,-73.977451,57TH STREET,F,F,F,392,R302,N600,B10,57 ST,F,IND
-73.994324,40.646292,B12,0,NINTH AVE (WEST END)-9 ave,0,40.646292,-73.994324,NINTH AVE - WEST END-9 AVE,D,D,D,393,R368,E001,B12,9 AVE,D,BMT
-73.994304,40.640914,B13,0,FORT HAMILTON,0,40.640914,-73.994304,FORT HAMILTON,D,D,D,394,R369,E003,B13,FT HAMILTON PKY,D,BMT
-73.994791,40.63626,B14,0,50 STREET,0,40.63626,-73.994791,50 STREET,D,D,D,402,R234,E004,B14,50 ST,D,BMT
-73.995476,40.631435,B15,0,55 STREET,0,40.631435,-73.995476,55 STREET,D,D,D,395,R247,E005,B15,55 ST,D,BMT
-73.998864,40.619589,B17,0,71ST STREET,0,40.619589,-73.998864,71ST STREET,D,D,D,396,R370,E009,B17,71 ST,D,BMT
-74.00061,40.613501,B18,0,79TH STREET,0,40.613501,-74.00061,79TH STREET,D,D,D,397,R371,E011,B18,79 ST,D,BMT
-74.001736,40.607954,B19,0,18 AVENUE,0,40.607954,-74.001736,18 AVENUE,D,D,D,398,R372,E012,B19,18 AVE,D,BMT
-73.998168,40.604556,B20,0,20 AVENUE,0,40.604556,-73.998168,20 AVENUE,D,D,D,399,R373,E013,B20,20 AVE,D,BMT
-73.993728,40.601875,B21,0,BAY PARKWAY (86 ST),0,40.601875,-73.993728,BAY PARKWAY - 86 ST,D,D,D,400,R374,E014,B21,BAY PARKWAY,D,BMT
-73.986829,40.597704,B22,0,25 AVENUE,0,40.597704,-73.986829,25 AVENUE,D,D,D,401,R399,E015,B22,25 AVE,D,BMT
-73.983765,40.588841,B23,0,BAY 50 STREET,0,40.588841,-73.983765,BAY 50 STREET,D,D,D,403,R400,E016,B23,BAY 50 ST,D,BMT
-73.878855,40.874811,D01,0,205TH STREET - NORWOOD - BAIN BRIDGE,0,40.874811,-73.878855,205TH STREET - NORWOOD - BAINBRIDGE,D,D,D,404,R157,N224,D01,NORWOOD-205 ST,D,IND
-73.887138,40.873244,D03,0,BEDFORD PARK BLVD,0,40.873244,-73.887138,BEDFORD PARK BLVD,"B, D","B, D","B, D",406,R156,N222,D03,BEDFORD PARK BL,BD,IND
-73.893509,40.866978,D04,0,KINGSBRIDGE ROAD,0,40.866978,-73.893509,KINGSBRIDGE ROAD,"B, D","B, D","B, D",408,R155,N220,D04,KINGSBRIDGE RD,BD,IND
-73.897749,40.861296,D05,0,FORDHAM ROAD,0,40.861296,-73.897749,FORDHAM ROAD,"B, D","B, D","B, D",410,R112,N217,D05,FORDHAM ROAD,BD,IND
-73.900741,40.856093,D06,0,182 - 183RD STREET,0,40.856093,-73.900741,182 - 183RD STREET,"B, D","B, D","B, D",412,R237,N215,D06,182-183 ST,BD,IND
-73.905227,40.85041,D07,0,TREMONT AVENUE,0,40.85041,-73.905227,TREMONT AVENUE,"B, D","B, D","B, D",413,R154,N213,D07,TREMONT AVE,BD,IND
-73.910136,40.8459,D08,0,174TH - 175TH STREET,0,40.8459,-73.910136,174TH - 175TH STREET,"B, D","B, D","B, D",415,R253,N210,D08,174-175 ST,BD,IND
-73.9134,40.839306,D09,0,170TH STREET,0,40.839306,-73.9134,170TH STREET,"B, D","B, D","B, D",417,R443,N208,D09,170 ST,BD,IND
-73.918438,40.833773,D10,0,167TH STREET,0,40.833773,-73.918438,167TH STREET,"B, D","B, D","B, D",419,R104,N206,D10,167 ST,BD,IND
-73.938209,40.830135,D12,0,155TH STREET,0,40.830135,-73.938209,155TH STREET,"B, D","B, D","B, D",421,R315,N202,D12,155 ST,BD,IND
-73.944216,40.824783,D13,0,145TH STREET,0,40.824783,-73.944216,145TH STREET,"B, D","B, D","B, D",422,R273,R177,D13,145 ST,1,IRT
-73.981637,40.762862,D14,0,7TH AVE - 53 ST,0,40.762862,-73.981637,7TH AVE - 53 ST,"B, D, E","B, D, E","B, D, E",424,R113,N300,D14,7 AVE-53 ST,BDE,IND
-73.981329,40.758663,D15,0,47-50TH ST - ROCKEFELLER CTR.,0,40.758663,-73.981329,47-50TH ST - ROCKEFELLER CTR,"B, D, F, M","B, D, F, M","B, D, F, M",426,R020,N500,D15,47-50 ST-ROCK,BDFM,IND
-73.984569,40.754222,D16,0,42ND STREET - BRYANT PARK,0,40.754222,-73.984569,42ND STREET - BRYANT PARK,"B, D, F, M","B, D, F, M","B, D, F, M",429,R021,N502,D16,42 ST-BRYANT PK,BDFM7,IND
-73.992821,40.742878,D18,0,23RD STREET -,0,40.742878,-73.992821,23RD STREET,"F, M","F, M","F, M",432,R203,N509,D18,23 ST-6 AVE,FM,IND
-73.996209,40.738228,D19,0,14TH STREET -,0,40.738228,-73.996209,14TH STREET,"F, M","F, M","F, M",434,R163,N512,D19,14 ST-6 AVE,FLM123,IND
-74.000495,40.732338,D20,0,WEST 4 ST - WASHINGTON SQ,0,40.732338,-74.000495,WEST 4 ST - WASHINGTON SQ,"B, D, F, M","B, D, F, M","B, D, F, M",438,R138,N080,D20,W 4 ST-WASH SQ,ABCDEFM,IND
-73.996204,40.725297,D21,0,BROADWAY-LAFAYETTE,0,40.725297,-73.996204,BROADWAY - LAFAYETTE,"B, D, F, M","B, D, F, M","B, D, F, M",440,R461,N519,D21,BROADWAY/LAFAY,BDFQ6,IND
-73.993753,40.718267,D22,0,GRAND STREET,0,40.718267,-73.993753,GRAND STREET,"B, D","B, D","B, D",442,R240,N520,D22,GRAND ST,BD,IND
-73.97689,40.68446,D24,0,ATLANTIC AVENUE,0,40.68446,-73.97689,ATLANTIC AVENUE,"B, Q","B, Q","B, Q",443,R057,R610,D24,ATLANTIC AVE,2345BDNQR,IRT
-73.972367,40.67705,D25,0,7 AVENUE (BRIGHTON),0,40.67705,-73.972367,7 AVENUE - BRIGHTON,"B, Q","B, Q","B, Q",444,R171,B004,D25,7 AVE,BQ,BMT
-73.962246,40.661614,D26,0,PROSPECT PARK,0,40.661614,-73.962246,PROSPECT PARK,"B, FS, Q","B, FS, Q","B, FS, Q",445,R196,B012,D26,PROSPECT PARK,BQS,BMT
-73.961495,40.655292,D27,0,PARKSIDE AVENUE,0,40.655292,-73.961495,PARKSIDE AVENUE,"B, Q","B, Q","B, Q",447,R148,B014,D27,PARKSIDE AVE,BQ,BMT
-73.962982,40.650527,D28,0,CHURCH AVENUE,0,40.650527,-73.962982,CHURCH AVENUE,"B, Q","B, Q","B, Q",448,R098,B015,D28,CHURCH AVE,BQ,BMT
-73.964492,40.644031,D29,0,BEVERLEY ROAD,0,40.644031,-73.964492,BEVERLEY ROAD,"B, Q","B, Q","B, Q",450,R262,B017,D29,BEVERLEY ROAD,BQ,BMT
-73.963891,40.640927,D30,0,CORTELYOU ROAD - DORCHESTER,0,40.640927,-73.963891,CORTELYOU ROAD - DORCHESTER,"B, Q","B, Q","B, Q",451,R184,B018,D30,CORTELYOU ROAD,BQ,BMT
-73.962793,40.635082,D31,0,NEWKIRK AVENUE,0,40.635082,-73.962793,NEWKIRK AVENUE,"B, Q","B, Q","B, Q",452,R149,B019,D31,NEWKIRK AVE,BQ,BMT
-73.961639,40.62927,D32,0,AVENUE H,0,40.62927,-73.961639,AVENUE H,"B, Q","B, Q","B, Q",453,R263,B020,D32,AVE H,BQ,BMT
-73.960803,40.625039,D33,0,AVENUE J,0,40.625039,-73.960803,AVENUE J,"B, Q","B, Q","B, Q",454,R228,B021,D33,AVE J,BQ,BMT
-73.959399,40.617618,D34,0,AVENUE M,0,40.617618,-73.959399,AVENUE M,"B, Q","B, Q","B, Q",455,R229,B022,D34,AVE M,BQ,BMT
-73.957734,40.60867,D35,0,KINGS HIGHWAY,0,40.60867,-73.957734,KINGS HIGHWAY,"B, Q","B, Q","B, Q",456,R211,B023,D35,KINGS HIGHWAY,BQ,BMT
-73.955929,40.5993,D37,0,AVENUE U (BRIGHTON),0,40.5993,-73.955929,AVENUE U - BRIGHTON,"B, Q","B, Q","B, Q",459,R150,B025,D37,AVE U,BQ,BMT
-73.955161,40.595246,D38,0,NECK ROAD - E 16 ST,0,40.595246,-73.955161,NECK ROAD - E 16 ST,"B, Q","B, Q","B, Q",460,R230,B026,D38,NECK ROAD,BQ,BMT
-73.954155,40.586896,D39,0,SHEEPSHEAD BAY,0,40.586896,-73.954155,SHEEPSHEAD BAY,"B, Q","B, Q","B, Q",461,R136,B027,D39,SHEEPSHEAD BAY,BQ,BMT
-73.961376,40.577621,D40,0,BRIGHTON BEACH,0,40.577621,-73.961376,BRIGHTON BEACH,"B, Q","B, Q","B, Q",463,R172,B029,D40,BRIGHTON BEACH,BQ,BMT
-73.96849,40.576312,D41,0,OCEAN PARKWAY,0,40.576312,-73.96849,OCEAN PARKWAY,Q,Q,Q,465,R264,B032,D41,OCEAN PARKWAY,Q,BMT
-73.975936,40.576128,D42,0,WEST 8TH STREET - NY AQUARIUM,0,40.576128,-73.975936,WEST 8TH STREET - NY AQUARIUM,"F, Q","F, Q","F, Q",467,R312,G011,D42,W 8 ST-AQUARIUM,FQ,BMT
-73.981232,40.577419,D43,0,STILLWELL AVE. - CONEY ISLAND,0,40.577419,-73.981232,STILLWELL AVE - CONEY ISLAND,"D, F, N, Q","D, F, N, Q","D, F, N, Q",469,R151,G001,D43,STILLWELL AVE,DFNQ,BMT
-74.009781,40.712582,E01,0,WORLD TRADE CENTER,0,40.712582,-74.009781,WORLD TRADE CENTER,E,E,E,471,R029,N094,E01,WORLD TRADE CTR,23ACE,IND
-73.783817,40.712646,F01,0,179TH STREET - JAMAICA,0,40.712646,-73.783817,179TH STREET - JAMAICA,F,"E, F","E, F",472,R019,N342,F01,JAMAICA-179 ST,F,IND
-73.793604,40.71047,F02,0,169TH STREET,0,40.71047,-73.793604,169TH STREET,F,F,F,474,R115,N340,F02,169 ST,F,IND
-73.803326,40.707564,F03,0,PARSONS BOULEVARD,0,40.707564,-73.803326,PARSONS BOULEVARD,F,"E, F","E, F",476,R114,N339,F03,PARSONS BLVD,F,IND
-73.810708,40.70546,F04,0,SUTPHIN BOULEVARD,0,40.70546,-73.810708,SUTPHIN BOULEVARD,F,F,F,478,R024,N605,F04,SUTPHIN BLVD,EJZ,IND
-73.820574,40.709179,F05,0,VAN WYCK BLVD - BRIARWOOD,0,40.709179,-73.820574,VAN WYCK BLVD - BRIARWOOD,"E, F","E, F","E, F",479,R255,N337,F05,VAN WYCK BLVD,EF,IND
-73.831008,40.714441,F06,0,UNION TURNPIKE (Kew Gardens),0,40.714441,-73.831008,UNION TURNPIKE - KEW GARDENS,"E, F","E, F","E, F",480,R158,N335,F06,UNION TPK-KEW G,EF,IND
-73.837324,40.718331,F07,0,75TH AVENUE,0,40.718331,-73.837324,75TH AVENUE,"E, F","E, F","E, F",482,R341,N334B,F07,75 AVE,EF,IND
-73.946,40.747846,F09,0,23RD - ELY AVENUE,0,40.747846,-73.946,23RD - ELY AVENUE,"E, M","E, M","E, M",483,R359,N307,F09,COURT SQ-23 ST,EMG,IND
-73.969055,40.757552,F11,0,LEXINGTON - 53RD ST,0,40.757552,-73.969055,LEXINGTON - 53RD ST,"E, M","E, M","E, M",484,R016,N305A,F11,LEXINGTON-53 ST,EM6,IND
-73.975224,40.760167,F12,0,FIFTH AVE - 53RD ST,0,40.760167,-73.975224,FIFTH AVE - 53RD ST,"E, M","E, M","E, M",487,R015,N303,F12,5 AVE-53 ST,EM,IND
-73.989938,40.723402,F14,0,SECOND AVENUE - LOWER EAST SIDE - 2ND AVE,0,40.723402,-73.989938,SECOND AVENUE - LOWER EAST SIDE,F,F,F,489,R300,N521,F14,2 AVE,F,IND
-73.988114,40.718611,F15,0,DELANCY STREET,0,40.718611,-73.988114,DELANCY STREET,F,F,F,491,R142,N525,F15,DELANCEY ST,FJMZ,IND
-73.990173,40.713715,F16,0,EAST BROADWAY,0,40.713715,-73.990173,EAST BROADWAY,F,F,F,493,R257,N528,F16,EAST BROADWAY,F,IND
-73.986885,40.699743,F18,0,YORK STREET,0,40.699743,-73.986885,YORK STREET,F,F,F,495,R301,N530,F18,YORK ST,F,IND
-73.990862,40.686145,F20,0,BERGEN STREET,0,40.686145,-73.990862,BERGEN STREET,"F, G","F, G","F, G",496,R058,R617,F20,BERGEN ST,23,IRT
-73.995048,40.680303,F21,0,CARROLL STREET,0,40.680303,-73.995048,CARROLL STREET,"F, G","F, G","F, G",498,R220,N534,F21,CARROLL ST,FG,IND
-73.995959,40.67358,F22,0,SMITH - 9TH STREET,0,40.67358,-73.995959,SMITH - 9TH STREET,"F, G","F, G","F, G",500,R270,N536,F22,SMITH-9 ST,FG,IND
-73.989779,40.670272,F23,0,4TH AVENUE - 9TH ST,0,40.670272,-73.989779,4TH AVENUE - 9TH ST,"F, G","F, G","F, G",501,R258,N537,F23,4 AVE,DFGMNR,IND
-73.980305,40.666271,F24,0,7TH AVENUE - PARK SLOPE,0,40.666271,-73.980305,7TH AVENUE - PARK SLOPE,"F, G","F, G","F, G",502,R288,N539A,F24,7 AV-PARK SLOPE,FG,IND
-73.979493,40.660365,F25,0,15 ST - PROSPECT PARK,0,40.660365,-73.979493,15 ST - PROSPECT PARK,"F, G","F, G","F, G",503,R241,N541,F25,15 ST-PROSPECT,FG,IND
-73.975776,40.650782,F26,0,FORT HAMILTON,0,40.650782,-73.975776,FORT HAMILTON,"F, G","F, G","F, G",505,R289,N543,F26,FT HAMILTON PKY,FG,IND
-73.979678,40.644041,F27,0,CHURCH AVENUE,0,40.644041,-73.979678,CHURCH AVENUE,"F, G","F, G","F, G",507,R204,N545,F27,CHURCH AVE,FG,IND
-73.978172,40.636119,F29,0,DITMAS AVENUE,0,40.636119,-73.978172,DITMAS AVENUE,F,F,F,509,R420,N547,F29,DITMAS AVE,F,IND
-73.976971,40.629755,F30,0,18 AVENUE (CULVER),0,40.629755,-73.976971,18 AVENUE - CULVER,F,F,F,511,R242,N549,F30,18 AVE,F,IND
-73.976127,40.625322,F31,0,AVENUE I (CULVER),0,40.625322,-73.976127,AVENUE I - CULVER,F,F,F,513,R421,N551,F31,AVE I,F,IND
-73.975264,40.620769,F32,0,22 AVENUE - BAY PARKWAY,0,40.620769,-73.975264,22 AVENUE - BAY PARKWAY,F,F,F,514,R422,N553,F32,22 AVE-BAY PKY,F,IND
-73.974197,40.61514,F33,0,AVENUE N (CULVER),0,40.61514,-73.974197,AVENUE N - CULVER,F,F,F,515,R423,N554,F33,AVE N,F,IND
-73.973022,40.608944,F34,0,AVENUE P (CULVER),0,40.608944,-73.973022,AVENUE P - CULVER,F,F,F,517,R424,N556,F34,AVE P,F,IND
-73.972361,40.603217,F35,0,KINGS HIGHWAY,0,40.603217,-73.972361,KINGS HIGHWAY,F,F,F,518,R130,N557,F35,KINGS HIGHWAY,F,IND
-73.973357,40.596063,F36,0,AVENUE U (CULVER),0,40.596063,-73.973357,AVENUE U - CULVER,F,F,F,520,R425,N559,F36,AVE U,F,IND
-73.97425,40.58962,F38,0,AVENUE X (CULVER),0,40.58962,-73.97425,AVENUE X - CULVER,F,F,F,521,R271,N561,F38,AVE X,F,IND
-73.974574,40.581014,F39,0,NEPTUNE AVENUE - VAN SICKLEN,0,40.581014,-73.974574,NEPTUNE AVENUE - VAN SICKLEN,F,F,F,522,R426,N562,F39,NEPTUNE AVE,F,IND
-73.801109,40.702147,G05,0,PARSONS - ARCHER (JAMAICA CENTER),0,40.702147,-73.801109,PARSONS - ARCHER - JAMAICA CENTER,"E, J, Z","E, J","E, J, Z",523,R025,N606,G05,JAMAICA CENTER,EJZ,IND
-73.807969,40.700486,G06,0,SUTPHIN BLVD - ARCHER - JFK AIRPORT,0,40.700486,-73.807969,SUTPHIN BLVD - ARCHER - JFK AIRPORT,"E, J, Z","E, J","E, J, Z",525,R128,N338,G06,SUTPHIN BLVD,F,IND
-73.816859,40.702566,G07,0,VAN WYCK - JAMAICA,0,40.702566,-73.816859,VAN WYCK - JAMAICA,E,E,E,527,R342,N604,G07,JAMAICA-VAN WYC,E,IND
-73.844521,40.721691,G08,0,71 AV - CONTINENTAL AVE - FOREST HILLS,0,40.721691,-73.844521,71 AV - CONTINENTAL AVE,"E, F, M, R","E, F, M, R","E, F, M, R",528,R141,N333,G08,FOREST HILLS-71,EFMR,IND
-73.852719,40.726523,G09,0,67TH AVENUE,0,40.726523,-73.852719,67TH AVENUE,"M, R","E, M, R","E, M, R",531,R219,N331,G09,67 AVE,MR,IND
-73.861604,40.729846,G10,0,63RD DRIVE - REGO PARK,0,40.729846,-73.861604,63RD DRIVE - REGO PARK,"M, R","E, M, R","E, M, R",533,R202,N330B,G10,63 DR-REGO PARK,MR,IND
-73.869229,40.733106,G11,0,WOODHAVEN BLVD - QUEENS MALL,0,40.733106,-73.869229,WOODHAVEN BLVD - QUEENS MALL,"M, R","E, M, R","E, M, R",535,R201,N329,G11,WOODHAVEN BLVD,MR,IND
-73.877223,40.737015,G12,0,GRAND AVENUE - NEWTOWN,0,40.737015,-73.877223,GRAND AVENUE - NEWTOWN,"M, R","E, M, R","E, M, R",537,R254,N327,G12,GRAND AV-NEWTON,MR,IND
-73.882017,40.742454,G13,0,ELMHURST AVENUE,0,40.742454,-73.882017,ELMHURST AVENUE,"M, R","E, M, R","E, M, R",538,R218,N325A,G13,ELMHURST AVE,MR,IND
-73.891338,40.746644,G14,0,ROOSEVELT AVENUE (JACKSON HEIGHTS),0,40.746644,-73.891338,ROOSEVELT AVENUE - JACKSON HEIGHTS,"E, F, M, R","E, F, M, R","E, F, M, R",539,R018,N323,G14,ROOSEVELT AVE,EFMR7,IND
-73.898453,40.749669,G15,0,65TH STREET,0,40.749669,-73.898453,65TH STREET,"M, R","E, M, R","E, M, R",541,R340,N322,G15,65 ST,MR,IND
-73.906006,40.752885,G16,0,NORTHERN BOULEVARD,0,40.752885,-73.906006,NORTHERN BOULEVARD,"M, R","E, M, R","E, M, R",542,R298,N318,G16,NORTHERN BLVD,MR,IND
-73.913333,40.756312,G18,0,46TH STREET,0,40.756312,-73.913333,46TH STREET,"M, R","E, M, R","E, M, R",544,R267,N316,G18,46 ST,MR,IND
-73.92074,40.756879,G19,0,STEINWAY STREET,0,40.756879,-73.92074,STEINWAY STREET,"M, R","E, M, R","E, M, R",547,R238,N314,G19,STEINWAY ST,MR,IND
-73.937243,40.748973,G21,0,QUEENS PLAZA (IND),0,40.748973,-73.937243,QUEENS PLAZA,"E, M, R","E, M, R","E, M, R",549,R140,N309A,G21,QUEENS PLAZA,EMR,IND
-73.943832,40.746554,G22,0,COURT SQ. - LONG ISLAND CITY,0,40.746554,-73.943832,COURT SQ - LONG ISLAND CITY,G,G,G,551,R359,N400,G22,COURT SQ,EMG,IND
-73.949724,40.744065,G24,0,21ST STREET - VAN ALST,0,40.744065,-73.949724,21ST STREET - VAN ALST,G,G,G,553,R360,N401,G24,VAN ALSTON-21ST,G,IND
-73.954449,40.731352,G26,0,GREENPOINT AVENUE,0,40.731352,-73.954449,GREENPOINT AVENUE,G,G,G,554,R239,N403,G26,GREENPOINT AVE,G,IND
-73.951277,40.724635,G28,0,NASSAU AVENUE,0,40.724635,-73.951277,NASSAU AVENUE,G,G,G,556,R256,N408A,G28,NASSAU AV,G,IND
-73.951418,40.712792,G29,0,METROPOLITAN AVENUE - GRAND ST,0,40.712792,-73.951418,METROPOLITAN AVENUE - GRAND ST,G,G,G,557,R268,N409,G29,METROPOLITAN AV,GL,IND
-73.950308,40.706092,G30,0,BROADWAY-UNION AVENUE,0,40.706092,-73.950308,BROADWAY - UNION AVENUE,G,G,G,558,R299,N412,G30,BROADWAY,G,IND
-73.950234,40.700377,G31,0,FLUSHING AVENUE,0,40.700377,-73.950234,FLUSHING AVENUE,G,G,G,559,R316,N414,G31,FLUSHING AVE,G,IND
-73.949046,40.694568,G32,0,MYRTLE - WILLOUGHBY AVE,0,40.694568,-73.949046,MYRTLE - WILLOUGHBY AVE,G,G,G,561,R286,N415,G32,MYRTLE-WILLOUGH,G,IND
-73.953522,40.689627,G33,0,BEDFORD - NOSTRAND AVE,0,40.689627,-73.953522,BEDFORD - NOSTRAND AVE,G,G,G,563,R269,N417,G33,BEDFORD/NOSTRAN,G,IND
-73.96007,40.688873,G34,0,CLASSON AVENUE,0,40.688873,-73.96007,CLASSON AVENUE,G,G,G,565,R287,N419,G34,CLASSON AVE,G,IND
-73.966839,40.688089,G35,0,CLINTON - WASHINGTON AVE,0,40.688089,-73.966839,CLINTON - WASHINGTON AVE,G,G,G,566,R317,N420B,G35,CLINTON-WASH AV,G,IND
-73.975375,40.687119,G36,0,FULTON STREET,0,40.687119,-73.975375,FULTON STREET,G,G,G,567,R318,N422,G36,FULTON ST,G,IND
-73.834058,40.668234,H02,0,AQUEDUCT - N.CONDUIT - RACETRACK,0,40.668234,-73.834058,AQUEDUCT RACETRACK,A,A,A,568,R357,N181,H02,AQUEDUCT-N CNDT,A,IND
-73.830301,40.660476,H03,0,HOWARD BEACH - JFK AIRPORT,0,40.660476,-73.830301,HOWARD BEACH - JFK AIRPORT,A,A,A,570,R414,N182,H03,HOWARD BCH-JFK,A,IND
-73.815925,40.608382,H04,0,BROAD CHANNEL,0,40.608382,-73.815925,BROAD CHANNEL,"A, H","A, H","A, H",574,R415,N183,H04,BROAD CHANNEL,AS,IND
-73.796924,40.590927,H06,0,BEACH 67TH ST - GASTON,0,40.590927,-73.796924,BEACH 67TH ST - GASTON,A,A,A,575,R335,N191,H06,BEACH 67 ST,A,IND
-73.788522,40.592374,H07,0,BEACH 60TH ST - STRAITON AV,0,40.592374,-73.788522,BEACH 60TH ST - STRAITON AV,A,A,A,576,R336,N192,H07,BEACH 60 ST,A,IND
-73.776013,40.592943,H08,0,BEACH 44TH ST - FRANK AV,0,40.592943,-73.776013,BEACH 44TH ST - FRANK AV,A,A,A,577,R337,N193,H08,BEACH 44 ST,A,IND
-73.768175,40.595398,H09,0,BEACH 36TH ST - EDGEMERE,0,40.595398,-73.768175,BEACH 36TH ST - EDGEMERE,A,A,A,578,R338,N194,H09,BEACH 36 ST,A,IND
-73.761353,40.600066,H10,0,BEACH 25TH ST - WAVECREST,0,40.600066,-73.761353,BEACH 25TH ST - WAVECREST,A,A,A,581,R358,N195,H10,BEACH 25 ST,A,IND
-73.755405,40.603995,H11,0,MOTT AVENUE - FAR ROCKAWAY,0,40.603995,-73.755405,MOTT AVENUE - FAR ROCKAWAY,A,A,A,582,R285,N196,H11,FAR ROCKAWAY,A,IND
-73.813641,40.588034,H12,0,BEACH 90TH ST - HOLLAND,0,40.588034,-73.813641,BEACH 90TH ST - HOLLAND,"A, H",H,"A, H",583,R416,N184,H12,BEACH 90 ST,AS,IND
-73.835592,40.580903,H15,0,ROCKAWAY PARK - BEACH 116 ST,0,40.580903,-73.835592,ROCKAWAY PARK - BEACH 116 ST,"A, H",H,"A, H",584,R419,N187,H15,ROCKAWAY PK 116,AS,IND
-73.828294,40.700492,J12,0,121 STREET - JAMAICA AV,0,40.700492,-73.828294,121 STREET - JAMAICA AV,"J, Z",J,"J, Z",585,R009,J037,J12,121 ST,JZ,BMT
-73.836345,40.697418,J13,0,111 STREET - JAMAICA AV,0,40.697418,-73.836345,111 STREET - JAMAICA AV,J,J,J,586,R008,J035,J13,111 ST,J,BMT
-73.84433,40.695178,J14,0,102ND STREET - 104 ST,0,40.695178,-73.84433,102ND STREET - 104 ST,"J, Z",J,"J, Z",587,R007,J034,J14,104 ST,JZ,BMT
-73.851576,40.693879,J15,0,WOODHAVEN BOULEVARD,0,40.693879,-73.851576,WOODHAVEN BOULEVARD,"J, Z",J,"J, Z",588,R006,J031,J15,WOODHAVEN BLVD,JZ,BMT
-73.86001,40.692435,J16,0,FOREST PARKWAY - 85 ST,0,40.692435,-73.86001,FOREST PARKWAY - 85 ST,J,J,J,590,R005,J030,J16,FOREST PARKWAY,J,BMT
-73.867139,40.691324,J17,0,ELDERTS LANE - 75 ST,0,40.691324,-73.867139,ELDERTS LANE - 75 ST,"J, Z",J,"J, Z",591,R004,J028,J17,ELDERTS LANE,JZ,BMT
-73.87255,40.689941,J19,0,CYPRESS HILLS,0,40.689941,-73.87255,CYPRESS HILLS,J,J,J,592,R003,J025,J19,CYPRESS HILLS,J,BMT
-73.873785,40.683194,J20,0,CRESCENT STREET,0,40.683194,-73.873785,CRESCENT STREET,"J, Z",J,"J, Z",593,R437,J024,J20,CRESCENT ST,JZ,BMT
-73.880039,40.68141,J21,0,NORWOOD AVENUE,0,40.68141,-73.880039,NORWOOD AVENUE,"J, Z",J,"J, Z",594,R436,J023,J21,NORWOOD AVE,JZ,BMT
-73.884639,40.679947,J22,0,CLEVELAND STREET,0,40.679947,-73.884639,CLEVELAND STREET,J,J,J,595,R435,J022,J22,CLEVELAND ST,J,BMT
-73.891688,40.678024,J23,0,VAN SICLEN AVENUE,0,40.678024,-73.891688,VAN SICLEN AVENUE,"J, Z",J,"J, Z",596,R434,J021,J23,VAN SICLEN AVE,JZ,BMT
-73.898654,40.676992,J24,0,ALABAMA AVENUE,0,40.676992,-73.898654,ALABAMA AVENUE,J,J,J,597,R433,J020,J24,ALABAMA AVE,J,BMT
-73.910456,40.682893,J28,0,CHAUNCEY STREET,0,40.682893,-73.910456,CHAUNCEY STREET,"J, Z",J,"J, Z",598,R432,J017,J28,CHAUNCEY ST,JZ,BMT
-73.916559,40.68637,J29,0,HALSEY STREET,0,40.68637,-73.916559,HALSEY STREET,J,J,J,599,R381,J016,J29,HALSEY ST,J,BMT
-73.92227,40.68963,J30,0,GATES AVENUE,0,40.68963,-73.92227,GATES AVENUE,"J, Z",J,"J, Z",600,R380,J013,J30,GATES AVE,JZ,BMT
-73.928814,40.693342,J31,0,KOSCIUSKO STREET,0,40.693342,-73.928814,KOSCIUSKO STREET,J,J,J,601,R379,J012,J31,KOSCIUSZKO ST,J,BMT
-74.002578,40.739777,L01,0,8TH AVENUE  14 STREET,0,40.739777,-74.002578,8TH AVENUE  14 STREET,L,L,L,602,R175,H001,L01,8 AVE,ACEL,BMT
-73.996786,40.737335,L02,0,6 AVENUE,0,40.737335,-73.996786,6 AVENUE,L,L,L,603,R163,H003,L02,6 AVE,FLM123,BMT
-73.986122,40.732849,L05,0,3RD AVENUE - 14 STREET,0,40.732849,-73.986122,3RD AVENUE - 14 STREET,L,L,L,604,R330,H005,L05,3 AVE,L,BMT
-73.981628,40.730953,L06,0,1ST AVENUE - 14 STREET,0,40.730953,-73.981628,1ST AVENUE - 14 STREET,L,L,L,606,R248,H007,L06,1 AVE,L,BMT
-73.956872,40.717304,L08,0,BEDFORD AVENUE,0,40.717304,-73.956872,BEDFORD AVENUE,L,L,L,608,R235,H009,L08,BEDFORD AVE,L,BMT
-73.950275,40.714063,L10,0,LORIMER STREET,0,40.714063,-73.950275,LORIMER STREET,L,L,L,609,R268,H012,L10,LORIMER ST,GL,BMT
-73.944053,40.714565,L11,0,GRAHAM AVENUE,0,40.714565,-73.944053,GRAHAM AVENUE,L,L,L,610,R249,H013,L11,GRAHAM AVE,L,BMT
-73.94067,40.711926,L12,0,GRAND STREET,0,40.711926,-73.94067,GRAND STREET,L,L,L,612,R250,H015,L12,GRAND ST,L,BMT
-73.93985,40.707739,L13,0,MONTROSE AVENUE,0,40.707739,-73.93985,MONTROSE AVENUE,L,L,L,614,R265,H017,L13,MONTROSE AVE,L,BMT
-73.933147,40.706152,L14,0,MORGAN AVENUE,0,40.706152,-73.933147,MORGAN AVENUE,L,L,L,615,R294,H019,L14,MORGAN AVE,L,BMT
-73.922913,40.706607,L15,0,JEFFERSON STREET,0,40.706607,-73.922913,JEFFERSON STREET,L,L,L,616,R279,H022,L15,JEFFERSON ST,L,BMT
-73.918425,40.703811,L16,0,DEKALB AVE - CANARSIE LI,0,40.703811,-73.918425,DEKALB AVE - CANARSIE LI,L,L,L,617,R236,H023,L16,DEKALB AVE,L,BMT
-73.911586,40.699814,L17,0,MYRTLE AVENUE - WYCKOFF AV,0,40.699814,-73.911586,MYRTLE AVENUE - WYCKOFF AV,L,L,L,618,R137,H026,L17,MYRTLE AVE,LM,BMT
-73.904084,40.695602,L19,0,HALSEY STREET - CANARSIE,0,40.695602,-73.904084,HALSEY STREET - CANARSIE,L,L,L,620,R266,H028,L19,HALSEY ST,L,BMT
-73.904046,40.688764,L20,0,WILSON AVENUE,0,40.688764,-73.904046,WILSON AVENUE,L,L,L,622,R295,H032,L20,WILSON AVE,L,BMT
-73.905249,40.682829,L21,0,BUSHWICK AVENUE - ABERDEEN ST,0,40.682829,-73.905249,BUSHWICK AVENUE - ABERDEEN ST,L,L,L,623,R313,H033,L21,BUSHWICK AVE,L,BMT
-73.903097,40.675345,L24,0,ATLANTIC AVENUE,0,40.675345,-73.903097,ATLANTIC AVENUE,L,L,L,624,R348,H035,L24,ATLANTIC AVE,L,BMT
-73.901975,40.669367,L25,0,SUTTER AVENUE,0,40.669367,-73.901975,SUTTER AVENUE,L,L,L,625,R349,H037,L25,SUTTER AVE,L,BMT
-73.900571,40.664038,L26,0,LIVONIA AVENUE,0,40.664038,-73.900571,LIVONIA AVENUE,L,L,L,626,R350,H038,L26,LIVONIA AVE,L,BMT
-73.899232,40.658733,L27,0,NEW LOTS AVENUE,0,40.658733,-73.899232,NEW LOTS AVENUE,L,L,L,627,R375,H039,L27,NEW LOTS AVE,L,BMT
-73.899485,40.650573,L28,0,EAST 105TH STREET,0,40.650573,-73.899485,EAST 105TH STREET,L,L,L,628,R376,H040,L28,EAST 105 ST,L,BMT
-73.90185,40.646654,L29,0,ROCKAWAY PARKWAY - CANARSIE,0,40.646654,-73.90185,ROCKAWAY PARKWAY - CANARSIE,L,L,L,629,R152,H041,L29,ROCKAWAY PKY,L,BMT
-73.889601,40.711396,M01,0,METROPOLITAN AVENUE,0,40.711396,-73.889601,METROPOLITAN AVENUE,M,M,M,630,R100,K026,M01,METROPOLITAN AV,M,BMT
-73.895877,40.706186,M04,0,FRESH POND ROAD,0,40.706186,-73.895877,FRESH POND ROAD,M,M,M,631,R404,K025,M04,FRESH POND ROAD,M,BMT
-73.903077,40.704423,M05,0,FOREST AVENUE,0,40.704423,-73.903077,FOREST AVENUE,M,M,M,632,R403,K024,M05,FOREST AVE,M,BMT
-73.90774,40.702762,M06,0,SENECA AVENUE,0,40.702762,-73.90774,SENECA AVENUE,M,M,M,633,R402,K022,M06,SENECA AVE,M,BMT
-73.919711,40.698664,M09,0,KNICKERBOCKER,0,40.698664,-73.919711,KNICKERBOCKER,M,M,M,634,R413,K019,M09,KNICKERBOCKER,M,BMT
-73.927397,40.697857,M10,0,CENTRAL AVENUE,0,40.697857,-73.927397,CENTRAL AVENUE,M,M,M,635,R401,K017,M10,CENTRAL AVE,M,BMT
-73.935657,40.697207,M11,0,MYRTLE AVE - BROADWAY,0,40.697207,-73.935657,MYRTLE AVE - BROADWAY,"J, M, Z","J, M","J, M, Z",636,R378,J009,M11,MYRTLE AVE,JMZ,BMT
-73.941126,40.70026,M12,0,FLUSHING AVENUE,0,40.70026,-73.941126,FLUSHING AVENUE,"J, M","J, M","J, M",637,R377,J007,M12,FLUSHING AVE,JM,BMT
-73.947408,40.703869,M13,0,LORIMER STREET,0,40.703869,-73.947408,LORIMER STREET,"J, M","J, M","J, M",638,R353,J005,M13,LORIMER ST,JM,BMT
-73.953431,40.70687,M14,0,HEWES STREET,0,40.70687,-73.953431,HEWES STREET,"J, M","J, M","J, M",639,R352,J003,M14,HEWES ST,JM,BMT
-73.957757,40.708359,M16,0,MARCY AVENUE,0,40.708359,-73.957757,MARCY AVENUE,"J, M, Z","J, M","J, M, Z",640,R460,J001,M16,MARCY AVE,JMZ,BMT
-73.987437,40.718315,M18,0,ESSEX STREET,0,40.718315,-73.987437,ESSEX STREET,"J, M, Z","J, M","J, M, Z",642,R142,A061,M18,ESSEX ST,FJMZ,BMT
-73.993915,40.72028,M19,0,BOWERY,0,40.72028,-73.993915,BOWERY,J,J,J,643,R311,A064,M19,BOWERY,JZ,BMT
-73.999892,40.718092,M20,0,CANAL STREET,0,40.718092,-73.999892,CANAL STREET,"J, Z",J,"J, Z",644,R118,A066,M20,CANAL ST,JNQRZ6,BMT
-74.003401,40.713243,M21,0,CHAMBERS STREET,0,40.713243,-74.003401,CHAMBERS STREET,"J, Z",J,"J, Z",645,R044,A069,M21,CHAMBERS ST,456JZ,BMT
-74.007582,40.710374,M22,0,FULTON STREET,0,40.710374,-74.007582,FULTON STREET,"J, Z",J,"J, Z",647,R002,A077,M22,FULTON ST,ACJZ2345,BMT
-74.011056,40.706476,M23,0,BROAD STREET,0,40.706476,-74.011056,BROAD STREET,"J, Z",J,"J, Z",650,R125,A083,M23,BROAD ST,JZ,BMT
-74.011719,40.635064,N02,0,8TH AVENUE (SEA BEACH),0,40.635064,-74.011719,8TH AVENUE - SEA BEACH,N,N,N,653,R390,D002,N02,8 AVE,N,BMT
-74.005351,40.631386,N03,0,FORT HAMILTON,0,40.631386,-74.005351,FORT HAMILTON,N,N,N,654,R391,D003,N03,FT HAMILTON PKY,N,BMT
-73.996353,40.624842,N04,0,NEW UTRECHT AVENUE,0,40.624842,-73.996353,NEW UTRECHT AVENUE,N,N,N,656,R398,D005,N04,NEW UTRECHT AVE,ND,BMT
-73.990414,40.620671,N05,0,18TH AVENUE (SEA BEACH -18 AV),0,40.620671,-73.990414,18TH AVENUE  -  SEA BEACH -18 AV,N,N,N,658,R392,D008,N05,18 AVE,N,BMT
-73.985026,40.61741,N06,0,20TH AVENUE (SEA BEACH),0,40.61741,-73.985026,20TH AVENUE - SEA BEACH,N,N,N,659,R393,D009,N06,20 AVE,N,BMT
-73.981848,40.611815,N07,0,BAY PARKWAY (SEA BEACH),0,40.611815,-73.981848,BAY PARKWAY - SEA BEACH,N,N,N,660,R394,D010,N07,BAY PKY-22 AVE,N,BMT
-73.980353,40.603923,N08,0,KINGS HIGHWAY,0,40.603923,-73.980353,KINGS HIGHWAY,N,N,N,662,R395,D012,N08,KINGS HIGHWAY,N,BMT
-73.979137,40.597473,N09,0,AVENUE U (SEA  BEACH),0,40.597473,-73.979137,AVENUE U - SEA  BEACH,N,N,N,663,R396,D015,N09,AVE U,N,BMT
-73.97823,40.592721,N10,0,86TH STREET (SEA BEACH-GRAVESEND),0,40.592721,-73.97823,86TH STREET  -  SEA BEACH-GRAVESEND,N,N,N,664,R397,D016,N10,86 ST,N,BMT
-73.912034,40.775036,R01,0,DITMARS BOULEVARD - ASTORIA,0,40.775036,-73.912034,DITMARS BOULEVARD - ASTORIA,"N, Q","N, Q","N, Q",678,R095,R515,R01,DITMARS BL-31 S,NQ,BMT
-73.917843,40.770258,R03,0,ASTORIA BOULEVARD (HOYT AV),0,40.770258,-73.917843,ASTORIA BOULEVARD - HOYT AV,"N, Q","N, Q","N, Q",679,R094,R514,R03,HOYT ST-ASTORIA,NQ,BMT
-73.921479,40.766779,R04,0,30TH AVENUE(GRAND AV),0,40.766779,-73.921479,30TH AVENUE- GRAND AV,"N, Q","N, Q","N, Q",680,R093,R513,R04,GRAND-30 AVE,NQ,BMT
-73.925508,40.76182,R05,0,BROADWAY,0,40.76182,-73.925508,BROADWAY,"N, Q","N, Q","N, Q",681,R092,R512,R05,BROADWAY-31 ST,NQ,BMT
-73.929575,40.756804,R06,0,36TH AVENUE - WASHINGTON AV,0,40.756804,-73.929575,36TH AVENUE - WASHINGTON AV,"N, Q","N, Q","N, Q",682,R091,R511,R06,WASHINGTON-36 A,NQ,BMT
-73.932755,40.752882,R08,0,39TH AVENUE - BEEBE AV,0,40.752882,-73.932755,39TH AVENUE - BEEBE AV,"N, Q","N, Q","N, Q",683,R090,R510,R08,BEEBE-39 AVE,NQ,BMT
-73.940202,40.750582,R09,0,QUEENSBORO PLAZA (ELEVATED),0,40.750582,-73.940202,QUEENSBORO PLAZA - ELEVATED,"N, Q","N, Q","N, Q",684,R121,R509,R09,QUEENSBORO PLZ,7NQ,IRT
-73.967258,40.76266,R11,0,LEXINGTON AVENUE - 59 ST,0,40.76266,-73.967258,LEXINGTON AVENUE - 59 ST,"N, Q, R","N, Q, R","N, Q, R",685,R050,A004,R11,LEXINGTON AVE,456NQR,BMT
-73.973347,40.764811,R13,0,5TH AVENUE - 59 ST,0,40.764811,-73.973347,5TH AVENUE - 59 ST,"N, Q, R","N, Q, R","N, Q, R",687,R079,A006,R13,5 AVE-59 ST,NQR,BMT
-73.980658,40.764664,R14,0,57TH STREET / 7TH AVENUE (MIDTOWN),0,40.764664,-73.980658,57TH STREET / 7TH AVENUE - MIDTOWN,"N, Q, R","N, Q, R","N, Q, R",689,R080,A010,R14,57 ST-7 AVE,NQR,BMT
-73.984139,40.759901,R15,0,49TH STREET,0,40.759901,-73.984139,49TH STREET,"N, Q, R","N, Q, R","N, Q, R",691,R081,A013,R15,49 ST-7 AVE,NQR,BMT
-73.98795,40.749567,R17,0,34TH STREET - HERALD SQ,0,40.749567,-73.98795,34TH STREET - HERALD SQ,"N, Q, R","N, Q, R","N, Q, R",695,R022,A022,R17,34 ST-HERALD SQ,BDFMNQR,BMT
-73.988691,40.745494,R18,0,28TH STREET,0,40.745494,-73.988691,28TH STREET,"N, R","N, R","N, R",700,R082,A027,R18,28 ST-BROADWAY,NR,BMT
-73.989344,40.741303,R19,0,23RD STREET,0,40.741303,-73.989344,23RD STREET,"N, R","N, R","N, R",702,R083,A030,R19,23 ST-5 AVE,NR,BMT
-73.992629,40.730328,R21,0,8TH STREET (NYU),0,40.730328,-73.992629,8TH STREET - NYU,"N, R","N, R","N, R",704,R085,A038,R21,8 ST-B'WAY NYU,NR,BMT
-73.997702,40.724329,R22,0,PRINCE STREET,0,40.724329,-73.997702,PRINCE STREET,"N, R","N, R","N, R",706,R086,A041,R22,PRINCE ST-B'WAY,NR,BMT
-74.001775,40.719527,R23,0,CANAL STREET / TUNNEL,0,40.719527,-74.001775,CANAL STREET / TUNNEL,R,"N, R","N, R",708,R462,A043,R23,CANAL ST,JNQRZ6,BMT
-74.006978,40.713282,R24,0,CITY HALL,0,40.713282,-74.006978,CITY HALL,R,"N, R","N, R",712,R087,A047,R24,MURRAY ST-B'WAY,R,BMT
-74.012188,40.711835,R25,0,CORTLANDT STREET - WORLD TRADE CENTER,0,40.711835,-74.012188,CORTLANDT STREET,1,1,1,713,R088,A050,R25,CORTLANDT ST,R,BMT
-74.013342,40.70722,R26,0,RECTOR STREET,0,40.70722,-74.013342,RECTOR STREET,R,"N, R","N, R",717,R227,A054,R26,RECTOR ST,R,BMT
-74.012994,40.703087,R27,0,WHITEHALL ST - SOUTH FERRY,0,40.703087,-74.012994,WHITEHALL ST - SOUTH FERRY,R,"N, R","N, R",719,R001,A058,R27,WHITEHALL ST,R1,BMT
-73.985942,40.69218,R29,0,LAWRENCE STREET,0,40.69218,-73.985942,LAWRENCE STREET,R,"N, R","N, R",721,R089,C003,R29,JAY ST-METROTEC,R,BMT
-73.981824,40.690635,R30,0,DEKALB AVENUE,0,40.690635,-73.981824,DEKALB AVENUE,"B, Q, R","B, D, N, Q, R","B, D, N, Q, R",723,R099,C008,R30,DEKALB AVE,BDNQR,BMT
-73.97881,40.683666,R31,0,PACIFIC STREET - ATLANTIC,0,40.683666,-73.97881,PACIFIC STREET - ATLANTIC,"D, N, R","D, N, R","D, N, R",724,R057,B002,R31,ATLANTIC AVE,BDNQR2345,BMT
-73.98311,40.677316,R32,0,UNION STREET,0,40.677316,-73.98311,UNION STREET,R,"D, N, R","D, N, R",726,R231,C010,R32,UNION ST,R,BMT
-73.988302,40.670847,R33,0,9TH STREET - 4TH AVE,0,40.670847,-73.988302,9TH STREET - 4TH AVE,R,"D, N, R","D, N, R",728,R258,C012,R33,9 ST,DFGMNR,BMT
-73.992872,40.665414,R34,0,PROSPECT AVENUE,0,40.665414,-73.992872,PROSPECT AVENUE,R,"D, N, R","D, N, R",729,R246,C014,R34,PROSPECT AVE,R,BMT
-73.998091,40.660397,R35,0,25TH STREET,0,40.660397,-73.998091,25TH STREET,R,"D, N, R","D, N, R",731,R278,C016,R35,25 ST,R,BMT
-74.003549,40.655144,R36,0,36TH STREET - 4TH AVE,0,40.655144,-74.003549,36TH STREET - 4TH AVE,"D, N, R","D, N, R","D, N, R",733,R197,C018,R36,36 ST,DNR,BMT
-74.010006,40.648939,R39,0,45TH STREET,0,40.648939,-74.010006,45TH STREET,"N, R","N, R","N, R",734,R232,C019,R39,45 ST,R,BMT
-74.014034,40.645069,R40,0,53RD STREET,0,40.645069,-74.014034,53RD STREET,"N, R","N, R","N, R",735,R233,C020,R40,53 ST,R,BMT
-74.017881,40.641362,R41,0,59TH STREET - 4TH AVE.,0,40.641362,-74.017881,59TH STREET - 4TH AVE,"N, R","N, R","N, R",736,R212,C021,R41,59 ST,NR,BMT
-74.023377,40.634967,R42,0,BAY RIDGE AVENUE,0,40.634967,-74.023377,BAY RIDGE AVENUE,R,R,R,738,R213,C023,R42,BAY RIDGE AVE,R,BMT
-74.02551,40.629742,R43,0,77TH STREET,0,40.629742,-74.02551,77TH STREET,R,R,R,739,R214,C024,R43,77 ST,R,BMT
-74.028398,40.622687,R44,0,86TH STREET,0,40.622687,-74.028398,86TH STREET,R,R,R,740,R215,C025,R44,86 ST,R,BMT
-74.030876,40.616622,R45,0,95TH ST. - FORT HAMILTON - BAY RIDGE,0,40.616622,-74.030876,95TH ST - FORT HAMILTON,R,R,R,742,R216,C027,R45,BAY RIDGE-95 ST,R,BMT
-73.959245,40.670343,S04,0,BOTANIC GARDENS - EASTERN PKWY,0,40.670343,-73.959245,BOTANIC GARDENS - EASTERN PKWY,FS,FS,FS,744,R412,B010,S04,BOTANIC GARDEN,S2345,BMT
-74.073643,40.643748,S31,0,SAINT GEORGE TERMINAL,0,40.643748,-74.073643,SAINT GEORGE TERMINAL,SI,SI,SI,746,R070,S101,S31,ST. GEORGE,1,SRT
-74.074835,40.636949,S30,0,TOMPKINSVILLE,0,40.636949,-74.074835,TOMPKINSVILLE,SI,SI,SI,745,R165,S102,S30,TOMPKINSVILLE,1,SRT